station,lat,lon,area,locname,floor,elev,start_at,end_at
D001,23.894972,121.542278,Hualien,東華人社院,2,41,2013-11-28,2020-11-02
D001,23.894972,121.542278,Hualien,東華人社院,2,41,2020-11-03,9999-12-31
D002,23.896278,121.539861,Hualien,東華教育學院,1,40,2013-11-28,2020-11-02
D002,23.896278,121.539861,Hualien,東華教育學院,1,40,2020-11-03,9999-12-31
D003,23.896389,121.542306,Hualien,東華圖書館,1,46,2013-11-28,9999-12-31
D004,23.894917,121.549056,Hualien,東華環境解說,1,37,2013-11-28,2022-11-23
D005,23.899222,121.541222,Hualien,東華學生活動中心,1,45,2013-11-28,9999-12-31
D006,23.895944,121.548355,Hualien,東華環境院,1,58,2015-05-26,9999-12-31
H001,24.7826,120.9957,Hsinchu,國網中心,-1,115,2014-11-06,2019-03-05
H001,24.7826,120.9957,Hsinchu,國網中心,2,115,2019-03-06,9999-12-31
H002,24.77533,121.015188,Hsinchu,竹園分隊,1,95,2014-11-06,9999-12-31
H003,24.7793,121.0084,Hsinchu,竹苑樓,-1,97,2014-11-06,2017-12-26
H004,24.7721,121.002,Hsinchu,竹村分隊,1,108,2014-11-06,9999-12-31
H005,24.7746,121.011,Hsinchu,消防局,1,103,2014-11-06,2021-03-22
H005,24.77285,121.009752,Hsinchu,新竹技術小組,1,100,2021-03-23,9999-12-31
H006,24.7738,121.0177,Hsinchu,矽導中心,1,103,2014-11-06,9999-12-31
H007,24.7616,121.0238,Hsinchu,清潔隊,1,131,2014-11-06,2019-12-09
H008,24.7842,121.0011,Hsinchu,廠房9樓,9,100,2014-12-15,9999-12-31
H009,24.7842,121.0011,Hsinchu,廠房5樓,5,100,2014-12-15,9999-12-31
H010,24.7842,121.0011,Hsinchu,廠房地下室,-1,100,2014-12-15,9999-12-31
H012,24.79802,120.987417,Hsinchu,竹科工研院,1,45,2015-03-26,2021-03-23
H013,23.1013,120.2822,Tainan,南科管理局,-1,2,2017-06-30,9999-12-31
H014,23.09,120.2853,Tainan,南科防汛中心,2,1,2017-06-30,9999-12-31
H015,23.1171,120.2706,Tainan,南科消防局,1,3,2017-06-30,9999-12-31
H016,22.8312,120.2558,Kaohsiung,路科管理局,-1,13,2017-06-30,9999-12-31
H017,22.8252,120.2787,Kaohsiung,路科汙水廠,1,8,2017-06-30,9999-12-31
H018,24.322,120.7239,Taichung,后里汙水廠,2,236,2017-08-14,9999-12-31
H019,24.2054,120.6031,Taichung,中科有眷宿舍,1,253,2017-08-14,9999-12-31
H01A,23.736512,120.395934,Yunlin,虎科汙水廠,2,21,2017-08-14,2022-05-29
H01A,23.736512,120.395934,Yunlin,虎科汙水廠,2,21,2022-05-30,9999-12-31
H01B,23.932451,120.42939,Changhua,二林管理局,1,15,2017-08-14,9999-12-31
H01C,23.947871,120.690424,Nantou,高等園區籌備處,1,98,2017-08-14,2020-12-24
H01D,24.734151,121.75691,Ilan,宜蘭科學園區,1,7,2017-10-13,2022-01-19
H01D,24.734151,121.75691,Ilan,宜蘭科學園區,1,7,2022-01-20,9999-12-31
H01E,24.463319,120.772685,Miaoli,銅鑼科學園區,1,251,2017-10-13,2022-01-18
H01E,24.463319,120.772685,Miaoli,銅鑼科學園區,1,251,2022-01-19,9999-12-31
H01F,24.707029,120.923278,Miaoli,竹南科學園區,1,59,2017-10-13,2022-01-18
H01F,24.707029,120.923278,Miaoli,竹南科學園區,1,59,2022-01-19,9999-12-31
H020,24.80407,121.044186,Hsinchu,竹科生醫園區,1,52,2017-10-13,2022-01-11
H020,24.80407,121.044186,Hsinchu,竹科生醫園區,1,52,2022-01-12,9999-12-31
H021,24.887514,121.188548,Taoyuan,龍潭科學園區,1,221,2017-10-13,2022-01-17
H021,24.887514,121.188548,Taoyuan,龍潭科學園區,1,221,2022-01-18,9999-12-31
H022,24.050244,120.435608,Changhua,鹿港龍山寺,1,5,2018-03-13,2020-09-08
H022,24.050417,120.434806,Changhua,鹿港龍山寺,1,4,2020-09-09,9999-12-31
H023,23.7482,120.2556,Yunlin,麥寮拱範宮,1,12,2018-04-03,9999-12-31
H024,22.99045,120.204309,Tainan,台南孔廟,1,18,2018-04-19,9999-12-31
H025,23.47839,120.454028,Chiayi,嘉義城隍廟,1,42,2018-04-19,9999-12-31
H026,23.5619,120.3087,Chiayi,笨港水仙宮,1,13,2018-04-19,9999-12-31
H027,25.033142,121.515966,Taipei,南門園區,1,15,2018-05-29,9999-12-31
H028,24.7753,121.0229,Hsinchu,篤行汙水廠,1,109,2020-01-08,2021-03-23
H029,22.6772,120.2915,Kaohsiung,見城工作站,1,12,2020-04-27,9999-12-31
H02A,25.0428,121.515,Taipei,台博館本館,-1,21,2020-05-29,9999-12-31
H02B,24.136276,120.685729,Taichung,台中舊火車站,1,80,2020-09-09,9999-12-31
H02C,23.936292,120.697778,Nantou,中科中興園區,1,92,2021-04-29,9999-12-31
I001,24.978476,121.320592,Taoyuan,大林消防1,1,119,2015-01-29,2018-11-08
I002,24.978476,121.320592,Taoyuan,大林消防2,1,119,2015-01-29,2018-11-08
I003,24.978476,121.320592,Taoyuan,大林消防3,1,119,2015-01-29,2018-11-08
L001,22.982507,120.245741,Tainan,裕文國小,-1,31,2012-08-31,9999-12-31
L002,23.017126,120.248426,Tainan,永信國小,1,41,2012-08-31,2020-03-23
L002,23.017126,120.248426,Tainan,永信國小,2,41,2020-03-24,9999-12-31
L003,23.015398,120.199802,Tainan,文元國小,1,39,2012-08-31,9999-12-31
L004,22.979378,120.196307,Tainan,新興國小,1,31,2012-08-31,9999-12-31
L005,22.997378,120.218641,Tainan,成功大學,1,20,2012-08-31,9999-12-31
L010,22.648,120.523,Pingtung,麟洛國小,3,26,2014-03-25,9999-12-31
L011,22.5944,120.4918,Pingtung,四維國小,2,16,2014-03-25,2020-09-01
L011,22.5944,120.4918,Pingtung,四維國小,1,16,2020-09-02,9999-12-31
L012,22.6061,120.6111,Pingtung,泰武國小,2,87,2014-04-08,9999-12-31
L013,22.1996,120.7069,Pingtung,楓林國小,1,55.8,2014-04-01,2018-07-09
L013,22.1996,120.7069,Pingtung,楓林國小,1,55.8,2018-07-10,2020-09-02
L013,22.1996,120.7069,Pingtung,楓林國小,1,55.8,2020-09-03,9999-12-31
L014,22.4711,120.5518,Pingtung,新埤國小,1,8.2,2014-04-01,9999-12-31
L015,22.7776,120.5242,Pingtung,載興國小,2,43.2,2014-04-01,9999-12-31
L016,22.7443,120.7322,Pingtung,霧台國小,1,841,2014-04-03,9999-12-31
L017,22.5243,120.4521,Pingtung,新園國小,1,5.5,2014-04-03,9999-12-31
L020,22.7223,120.4433,Kaohsiung,溪埔國小,1,46,2014-03-25,2021-12-14
L020,22.7223,120.4433,Kaohsiung,溪埔國小,1,46,2021-12-15,9999-12-31
L021,23.1489,120.632,Kaohsiung,小林國小,1,438.6,2014-04-02,9999-12-31
L022,22.6266,120.3244,Kaohsiung,師範高中,1,8,2014-04-02,9999-12-31
L023,22.8876,120.2438,Kaohsiung,大湖國小,1,13.4,2014-04-08,9999-12-31
L024,22.803,120.3028,Kaohsiung,竹圍國小,1,8,2014-04-07,2023-03-22
L024,22.803,120.3028,Kaohsiung,竹圍國小,1,8,2023-03-23,9999-12-31
L025,22.605,120.3952,Kaohsiung,永芳國小,1,35.3,2014-04-07,2023-02-17
L025,22.605,120.3952,Kaohsiung,永芳國小,1,35.3,2023-02-18,9999-12-31
L026,22.997678,120.22156,Tainan,成大資源系,1,21,2020-01-06,9999-12-31
P001,23.081664,120.517198,Tainan,南化潭,1,102,2018-03-29,2022-06-16
P001,23.081664,120.517198,Tainan,南化潭,1,102,2022-06-17,9999-12-31
P002,25.0404,121.614,Taipei,地球所測試站,-3,24,2019-07-09,9999-12-31
S001,24.969167,121.335,NewTaipei,鳳鳴國小,1,113,2015-11-01,9999-12-31
S002,25.0378,121.443667,NewTaipei,新泰國小,1,14,2015-11-01,9999-12-31
S003,24.954783,121.38405,NewTaipei,柑園國中,1,35,2015-11-01,9999-12-31
S004,25.018233,121.452333,NewTaipei,國光國小,1,13,2015-11-01,9999-12-31
S005,25.064533,121.48815,NewTaipei,明志國中,2,5,2015-11-01,9999-12-31
S006,25.087117,121.465233,NewTaipei,蘆洲國中,2,4,2015-11-01,9999-12-31
S007,25.08065,121.43515,NewTaipei,五股德音幼兒園,1,24,2015-11-01,9999-12-31
S008,25.0828,121.4946,NewTaipei,碧華國中,2,8,2015-11-01,2021-02-08
S009,25.066733,121.641383,NewTaipei,樟樹國小,2,20,2015-11-01,2023-04-18
S009,25.066733,121.641383,NewTaipei,樟樹國小,2,20,2023-04-19,9999-12-31
S00A,24.93805,121.71285,NewTaipei,坪林國中,1,197,2015-11-01,9999-12-31
S00B,25.021917,121.9148,NewTaipei,貢寮國小,1,25,2015-11-01,9999-12-31
S00C,25.104533,121.845767,NewTaipei,欽賢國中,1,425,2015-11-01,9999-12-31
S00D,25.177,121.6947,NewTaipei,萬里國中,1,16,2015-11-01,9999-12-31
S00E,25.011167,121.4488,NewTaipei,大觀國中,1,110,2015-11-01,9999-12-31
S00F,25.004883,121.466317,NewTaipei,實踐國小,1,20,2015-11-01,2022-06-14
S00F,25.004883,121.466317,NewTaipei,實踐國小,1,20,2022-06-15,9999-12-31
S010,24.997867,121.463033,NewTaipei,重慶國中,1,23,2015-11-01,9999-12-31
S011,24.99995,121.479317,NewTaipei,積穗國中,2,23,2015-11-01,9999-12-31
S012,25.003983,121.520883,NewTaipei,福和國中,1,17,2015-11-01,9999-12-31
S013,25.002417,121.5055,NewTaipei,漳和國中,1,17,2015-11-01,9999-12-31
S014,24.962417,121.430233,NewTaipei,土城國中,1,26,2015-11-01,9999-12-31
S015,25.033967,121.4417,NewTaipei,國泰國小,1,10,2015-11-01,9999-12-31
S016,25.0252,121.473083,NewTaipei,莒光國小,1,12,2015-11-01,9999-12-31
S017,25.028783,121.468267,NewTaipei,江翠國中,1,7,2015-11-01,9999-12-31
S018,25.029317,121.476817,NewTaipei,文聖國小,1,12,2015-11-01,9999-12-31
S019,25.024617,121.458883,NewTaipei,新埔國中,1,15,2015-11-01,9999-12-31
S01A,25.026783,121.463467,NewTaipei,新埔國小,3,14,2015-11-01,9999-12-31
S01B,24.986433,121.5088,NewTaipei,中和國中,2,18,2015-11-01,9999-12-31
S01C,25.023467,121.458433,NewTaipei,文德國小,2,16,2015-11-01,9999-12-31
S01D,25.0217,121.427017,NewTaipei,民安國小,1,14,2015-11-01,2020-12-22
S01E,25.0355,121.452017,NewTaipei,新莊國中,1,12,2015-11-01,9999-12-31
S01F,25.087635,121.489095,NewTaipei,碧華國中,1,0,2021-02-09,9999-12-31
T001,25.013404,121.541664,Taipei,台科大,2,19,2013-10-03,9999-12-31
T002,25.015626,121.546997,Taipei,台大生技,3,18,2013-10-03,2017-11-08
T003,25.018646,121.5416,Taipei,台大電機,-1,19,2013-10-17,9999-12-31
W001,23.430417,121.348889,Hualien,三民國小,1,96,2011-04-07,9999-12-31
W002,23.991833,121.631278,Hualien,明恥國小,2,44,2011-03-29,9999-12-31
W003,23.841944,121.507583,Hualien,豐裡國小,2,70,2011-03-31,9999-12-31
W004,23.405833,121.319972,Hualien,太平國小,1,134,2011-04-07,9999-12-31
W005,23.655,121.419278,Hualien,大進國小,2,131,2011-04-06,9999-12-31
W006,23.904417,121.531556,Hualien,志學國小,2,67,2011-03-30,9999-12-31
W007,24.102871,121.607052,Hualien,三棧國小,2,26,2011-03-28,9999-12-31
W008,23.935333,121.578333,Hualien,光華國小,1,47,2011-03-30,9999-12-31
W009,23.493245,121.39233,Hualien,瑞美國小,1,85,2011-04-07,9999-12-31
W00A,23.754167,121.468556,Hualien,大榮國小,2,99,2011-03-31,9999-12-31
W00B,24.052278,121.608167,Hualien,康樂國小,1,35,2011-03-29,9999-12-31
W00C,23.870444,121.508139,Hualien,壽豐國小,2,63,2011-03-30,9999-12-31
W00D,23.819498,121.473476,Hualien,溪口國小,2,116,2011-03-31,9999-12-31
W00E,24.006861,121.619472,Hualien,復興國小,2,30,2011-03-29,9999-12-31
W00F,23.978,121.616667,Hualien,北濱國小,1,23,2011-03-29,9999-12-31
W010,23.336306,121.313389,Hualien,玉里國中,1,213,2011-04-07,9999-12-31
W011,24.127639,121.651694,Hualien,新城國小,1,54,2011-03-28,9999-12-31
W012,24.206861,121.483056,Hualien,西寶國小,1,955,2011-03-28,9999-12-31
W013,23.965194,121.494444,Hualien,銅門國小,1,180,2011-03-30,9999-12-31
W014,24.118028,121.62475,Hualien,秀林國小,2,62,2011-04-13,9999-12-31
W015,23.706194,121.412639,Hualien,明利國小,1,111,2011-04-06,9999-12-31
W016,23.607414,121.39083,Hualien,大富國小,1,185,2011-04-06,2017-03-27
W017,23.497333,121.44575,Hualien,奇美國小,1,150,2011-04-12,9999-12-31
W018,23.468806,121.496806,Hualien,港口國小,2,26,2011-04-12,9999-12-31
W019,23.295722,121.267278,Hualien,卓樂國小,1,213,2011-04-08,2017-03-22
W019,23.295722,121.267278,Hualien,卓樂國小,1,213,2017-03-23,9999-12-31
W01A,23.214528,121.279389,Hualien,東竹國小,1,248,2011-04-08,9999-12-31
W01B,23.462028,121.495417,Hualien,靜浦國小,1,86,2011-04-12,2015-09-14
W01B,23.462028,121.495417,Hualien,靜浦國小,1,86,2015-09-15,9999-12-31
W01C,23.383167,121.358694,Hualien,高寮國小,1,240,2011-04-12,9999-12-31
W01D,23.782278,121.564306,Hualien,水璉國小,2,41,2011-04-13,9999-12-31
W01E,23.451528,121.392806,Hualien,春日國小,1,121,2011-04-12,9999-12-31
W01F,23.171583,121.247833,Hualien,富里國小,1,253,2011-04-08,9999-12-31
W020,23.278472,121.322528,Hualien,吳江國小,1,194,2011-04-12,9999-12-31
W021,23.652083,121.535611,Hualien,新社國小,1,26,2011-04-13,9999-12-31
W022,23.867639,121.556806,Hualien,月眉國小,1,33,2011-04-13,9999-12-31
W023,24.1476,121.6292,Hualien,富世國小,1,57,2016-05-23,9999-12-31
W024,23.6012,121.5219,Hualien,豐濱國中,1,31,2016-05-23,9999-12-31
W025,23.6599,121.4479,Hualien,太巴塱國小,2,116,2016-05-24,9999-12-31
W026,23.5769,121.3619,Hualien,馬遠國小,1,193,2016-05-24,2022-11-22
W026,23.5769,121.3619,Hualien,馬遠國小,1,193,2022-11-23,9999-12-31
W027,23.5231,121.3903,Hualien,鶴岡國小,2,115,2016-05-24,2020-02-06
W027,23.5231,121.3903,Hualien,鶴岡國小,2,115,2020-02-07,9999-12-31
W028,23.9795,121.6149,Hualien,花蓮女中,1,18,2016-05-23,9999-12-31
W029,24.1614,121.6526,Hualien,崇德國小,2,36,2017-03-21,9999-12-31
W02A,24.308,121.7487,Hualien,和平國小,1,27,2018-04-19,9999-12-31
W02B,24.4258,121.7495,Ilan,金洋國小,1,122,2018-04-20,9999-12-31
W02C,24.6561,121.5787,Ilan,松羅分校,1,197,2018-09-04,9999-12-31
W02D,24.6128,121.5262,Ilan,英士分校,1,308,2018-09-05,9999-12-31
W02E,24.5326,121.4508,Ilan,茂安分班,1,578,2018-09-05,9999-12-31
W02F,24.7116,121.6525,Ilan,化育分校,1,89,2019-10-17,9999-12-31
W030,24.719,121.6877,Ilan,內城國中小,1,40,2016-10-25,2022-09-05
W030,24.719,121.6877,Ilan,內城國中小,1,40,2022-09-06,9999-12-31
W031,24.329139,121.739861,Ilan,澳花國小,2,56,2012-01-09,9999-12-31
W032,24.471028,121.777667,Ilan,金岳國小,1,46,2012-01-09,9999-12-31
W033,24.600639,121.529306,Ilan,樂水分校,2,336,2012-01-16,9999-12-31
W034,24.935763,121.88679,Ilan,大溪國小,1,14,2012-01-19,9999-12-31
W035,24.678722,121.6085,Ilan,大同國小,1,111,2012-01-13,9999-12-31
W036,24.822139,121.768722,Ilan,礁溪國小,2,28,2012-01-18,9999-12-31
W037,24.666083,121.651,Ilan,三星國小,1,110,2012-01-13,9999-12-31
W038,24.52175,121.832472,Ilan,東澳國小,1,26,2012-01-10,9999-12-31
W039,24.863111,121.82775,Ilan,頭城國小,1,80,2012-01-19,9999-12-31
W03A,24.66575,121.827611,Ilan,利澤國小,1,12,2012-01-11,9999-12-31
W03B,24.696583,121.811444,Ilan,孝威國小,1,7,2012-01-11,2016-10-23
W03B,24.696583,121.811444,Ilan,孝威國小,1,7,2016-10-24,9999-12-31
W03C,24.632639,121.789667,Ilan,冬山國小,1,4,2012-01-12,9999-12-31
W03D,24.445222,121.777667,Ilan,武塔國小,1,41,2012-01-09,9999-12-31
W03E,24.467028,121.801083,Ilan,南澳國小,1,50,2012-01-10,9999-12-31
W03F,24.720361,121.688528,Ilan,內城國小,1,55,2012-01-13,2014-12-18
W040,24.609472,121.687139,Ilan,寒溪國小,2,159,2012-01-12,9999-12-31
W041,24.680833,121.762111,Ilan,羅東高中,1,41,2011-04-19,9999-12-31
W042,24.748972,121.746917,Ilan,復興國中,1,24,2011-04-19,9999-12-31
W043,24.488056,121.425639,Ilan,四季國小,1,875,2012-01-16,9999-12-31
W044,24.758722,121.814889,Ilan,過嶺國小,1,5,2012-01-18,9999-12-31
W045,24.825472,121.82075,Ilan,竹安國小,1,23,2012-01-19,9999-12-31
W046,24.779889,121.744278,Ilan,龍潭國小,1,13,2012-01-17,9999-12-31
W047,24.437966,121.380345,Ilan,南山國小,2,1151,2012-01-16,9999-12-31
W048,24.579,121.867861,Ilan,南安國小,1,50,2012-01-10,9999-12-31
W049,24.724389,121.762917,Ilan,凱旋國小,3,51,2012-01-17,9999-12-31
W04A,24.667806,121.712778,Ilan,大隱國小,1,52,2012-01-12,9999-12-31
W04B,24.971417,121.927028,Ilan,大里國小,1,98,2012-01-19,9999-12-31
W04C,24.743815,121.789883,Ilan,壯圍國小,2,6,2012-01-18,9999-12-31
W04D,24.754,121.754444,Ilan,中山國小,1,19,2012-01-17,2019-10-16
W04D,24.754,121.754444,Ilan,中山國小,2,19,2019-10-17,9999-12-31
W04E,24.622056,121.834611,Ilan,馬賽國小,2,21,2012-01-11,9999-12-31
W04F,24.593278,121.84275,Ilan,蘇澳海事,1,13,2012-03-30,9999-12-31
W050,24.900485,121.862292,Ilan,梗枋國小,1,18,2018-02-08,9999-12-31
W051,22.884722,120.663694,Kaohsiung,茂林國中,1,269,2011-03-07,9999-12-31
W052,22.969028,120.540917,Kaohsiung,杉林國中,2,189,2011-03-10,9999-12-31
W053,23.178689,120.78079,Kaohsiung,桃源國中,1,622,2011-03-09,9999-12-31
W054,23.081972,120.592194,Kaohsiung,甲仙國中,1,603,2011-03-10,9999-12-31
W055,22.883861,120.530889,Kaohsiung,中壇國小,1,141,2011-03-07,9999-12-31
W056,23.16075,120.765889,Kaohsiung,桃源國小,1,620,2011-03-09,2018-12-12
W056,23.16075,120.765889,Kaohsiung,桃源國小,1,620,2018-12-13,9999-12-31
W057,22.910861,120.715333,Kaohsiung,多納國小,1,267,2011-03-07,9999-12-31
W058,23.240639,120.696861,Kaohsiung,三民國中,1,600,2011-03-10,2012-12-28
W059,22.996222,120.634,Kaohsiung,六龜國小,1,267,2011-03-08,2022-02-09
W059,22.996222,120.634,Kaohsiung,六龜國小,1,267,2022-02-10,9999-12-31
W05A,23.03175,120.662083,Kaohsiung,新發國小,1,297,2011-03-08,9999-12-31
W05B,22.885861,120.579833,Kaohsiung,龍肚國小,1,141,2011-03-07,2014-08-14
W05B,22.885861,120.579833,Kaohsiung,龍肚國小,1,141,2014-08-15,9999-12-31
W05C,23.10525,120.682528,Kaohsiung,建山國小,1,539,2011-03-09,2013-07-29
W05C,23.109078,120.701048,Kaohsiung,寶來國小,1,368,2013-07-30,9999-12-31
W05D,23.252925,120.819205,Kaohsiung,樟山國小,1,780,2011-03-09,9999-12-31
W05E,22.811306,120.397667,Kaohsiung,金山國小,1,100,2011-11-02,2013-08-05
W05E,22.777267,120.405773,Kaohsiung,深水國小,1,89,2013-08-06,9999-12-31
W05F,22.730333,120.345639,Kaohsiung,大社國小,1,43,2011-11-02,9999-12-31
W060,22.663222,120.361917,Kaohsiung,鳥松國小,-1,31,2011-11-02,2019-04-10
W060,22.663222,120.361917,Kaohsiung,鳥松國小,1,31,2019-04-11,9999-12-31
W061,22.888833,120.480139,Kaohsiung,旗山國小,1,54,2011-11-02,2013-07-29
W061,22.917571,120.453443,Kaohsiung,觀亭國小,1,70,2013-07-31,9999-12-31
W062,22.735139,120.326639,Kaohsiung,楠梓國中,1,43,2011-11-02,2021-01-11
W062,22.735139,120.326639,Kaohsiung,楠梓國中,1,43,2021-01-12,2023-03-19
W062,22.735139,120.326639,Kaohsiung,楠梓國中,1,43,2023-03-20,9999-12-31
W063,22.795255,120.365948,Kaohsiung,燕巢國小,1,56,2011-11-02,2023-03-19
W063,22.795255,120.365948,Kaohsiung,燕巢國小,1,56,2023-03-20,9999-12-31
W064,22.701639,120.348806,Kaohsiung,仁武國小,1,46,2011-11-02,9999-12-31
W065,22.9757,120.4675,Kaohsiung,木柵國小,1,86,2018-05-03,9999-12-31
W066,22.8756,120.1965,Kaohsiung,興達國小,1,8,2018-11-23,9999-12-31
W067,22.878,120.3795,Kaohsiung,崇德國小,1,38,2018-11-22,2022-03-07
W067,22.878,120.3795,Kaohsiung,崇德國小,1,38,2022-03-08,9999-12-31
W068,22.8209,120.2093,Kaohsiung,新港國小,1,4,2018-11-23,9999-12-31
W069,22.8353,120.3696,Kaohsiung,新興國小,1,64,2018-11-22,9999-12-31
W06A,22.8493,120.3244,Kaohsiung,復安國小,1,16,2018-11-23,2020-11-16
W06A,22.8493,120.3244,Kaohsiung,復安國小,1,16,2020-11-17,9999-12-31
W06B,22.8672,120.265,Kaohsiung,路竹大社國小,1,26,2018-11-22,9999-12-31
W06C,22.898332,120.627109,Kaohsiung,新威國小,1,153,2018-12-07,9999-12-31
W06D,23.055423,120.721532,Kaohsiung,寶山國小,1,1342,2018-12-05,9999-12-31
W06E,23.073109,120.672564,Kaohsiung,荖濃國小,1,405,2018-12-07,9999-12-31
W06F,23.128456,120.719008,Kaohsiung,興中國小,1,519,2018-12-06,9999-12-31
W070,23.7854,120.9502,Nantou,雙龍國小,1,520,2020-05-15,9999-12-31
W071,23.980917,120.686278,Nantou,草屯國小,1,205,2011-05-06,9999-12-31
W072,23.93082,120.990414,Nantou,麒麟國小,1,927,2011-05-03,9999-12-31
W073,23.640194,120.869556,Nantou,新鄉國小,2,780,2011-05-10,2020-11-20
W073,23.640194,120.869556,Nantou,希娜巴嵐國小,2,780,2020-11-21,2021-04-28
W073,23.640194,120.869556,Nantou,希娜巴嵐國小,2,780,2021-04-29,9999-12-31
W074,23.837444,120.902528,Nantou,頭社國小,1,745,2011-05-04,2017-02-15
W074,23.837444,120.902528,Nantou,頭社國小,1,745,2017-02-16,9999-12-31
W075,23.561923,120.92778,Nantou,東埔國小,1,1152,2011-05-10,2021-04-28
W075,23.561923,120.92778,Nantou,東埔國小,2,1152,2021-04-29,9999-12-31
W076,23.968083,121.108889,Nantou,親愛國小,2,930,2011-05-03,9999-12-31
W077,23.768917,120.707611,Nantou,延平國小,1,188,2011-05-11,9999-12-31
W078,23.794111,120.942778,Nantou,地利國小,1,393,2011-05-04,9999-12-31
W079,23.890972,120.889528,Nantou,五城國小,2,189,2011-05-12,2023-06-07
W079,23.890972,120.889528,Nantou,五城國小,2,189,2023-06-08,9999-12-31
W07A,23.73629,120.765206,Nantou,廣興國小,2,552,2011-05-11,9999-12-31
W07B,23.784889,120.864444,Nantou,永興國小,1,392,2011-05-05,9999-12-31
W07C,23.942528,120.926333,Nantou,桃源國小,2,491,2011-05-04,9999-12-31
W07D,24.123047,121.157103,Nantou,發祥國小,1,983,2011-05-02,9999-12-31
W07E,23.942056,120.702556,Nantou,光復國小,2,182,2011-05-06,9999-12-31
W07F,23.916623,121.046734,Nantou,法治國小,2,728,2011-05-03,9999-12-31
W080,23.646052,120.656319,Nantou,桶頭國小,1,243,2011-05-09,9999-12-31
W081,23.71425,120.654861,Nantou,鯉魚國小,2,119,2011-05-09,9999-12-31
W082,23.711972,120.8715,Nantou,忠信國小,2,731,2011-05-10,2017-02-17
W083,24.086333,121.217,Nantou,合作國小,2,1466,2011-05-02,9999-12-31
W084,23.8905,120.966389,Nantou,東光國小,1,663,2011-05-04,9999-12-31
W085,23.931111,120.694056,Nantou,中興國中,1,106,2011-05-12,9999-12-31
W086,23.528028,120.856889,Nantou,神木國小,2,1197,2011-05-11,2017-02-17
W087,23.593694,120.887694,Nantou,同富國小,1,780,2011-05-10,9999-12-31
W088,24.02104,121.133284,Nantou,仁愛國小,2,1141,2011-05-02,2020-09-08
W088,24.02104,121.133284,Nantou,仁愛國小,2,1141,2020-09-09,2023-06-01
W088,24.02104,121.133284,Nantou,仁愛國小,1,1141,2023-06-02,9999-12-31
W089,23.827839,120.786609,Nantou,集集國小,1,236,2011-05-05,9999-12-31
W08A,23.870028,120.676444,Nantou,田豐國小,2,206,2011-05-05,2020-09-10
W08A,23.870028,120.676444,Nantou,田豐國小,3,206,2020-09-11,9999-12-31
W08B,23.699472,120.716889,Nantou,大鞍國小,1,734,2011-05-09,9999-12-31
W08C,23.905694,120.63775,Nantou,文山國小,1,415,2011-04-26,9999-12-31
W08D,23.925111,120.73225,Nantou,永和國小,1,150,2011-04-26,9999-12-31
W08E,23.809417,120.721167,Nantou,社寮國小,2,210,2011-04-27,9999-12-31
W08F,23.904,120.679639,Nantou,縣消防局,2,211,2011-04-27,9999-12-31
W090,24.025944,120.92143,Nantou,太平國小,1,682,2011-04-29,9999-12-31
W091,24.011444,120.822389,Nantou,福龜國小,1,262,2011-04-28,2020-10-15
W091,24.011444,120.822389,Nantou,福龜國小,1,262,2020-10-16,9999-12-31
W092,24.012556,120.957778,Nantou,史港國小,1,468,2011-04-29,9999-12-31
W093,24.063194,120.97,Nantou,互助國小,1,478,2011-04-29,9999-12-31
W094,23.979583,120.698444,Nantou,富功國小,2,177,2011-04-28,2021-04-27
W094,23.979583,120.698444,Nantou,富功國小,1,177,2021-04-28,9999-12-31
W095,23.841694,120.630639,Nantou,弓鞋國小,1,416,2011-04-27,9999-12-31
W096,24.09263,120.888089,Nantou,長福國小,1,381,2011-04-28,9999-12-31
W097,23.941222,120.667861,Nantou,僑建國小,1,102,2011-04-26,9999-12-31
W098,24.059604,121.191918,Nantou,平靜國小,2,1311,2016-08-17,2018-08-27
W098,24.059604,121.191918,Nantou,都達國小,2,1311,2018-08-28,2020-05-13
W098,24.059604,121.191918,Nantou,都達國小,1,1311,2020-05-14,9999-12-31
W099,23.6977,120.8545,Nantou,信義國小,2,518,2017-02-17,9999-12-31
W09A,24.1597,121.1772,Nantou,紅葉國小,2,1154,2020-05-14,9999-12-31
W09B,23.8834,120.7987,Nantou,永樂國小,1,225,2020-05-15,9999-12-31
W09C,24,121.0785,Nantou,南豐國小,1,715,2020-05-14,9999-12-31
W09D,23.9688,120.9665,Nantou,埔里國小,1,451,2020-05-15,9999-12-31
W100,23.5603,120.8749,Nantou,桐林國小,1,1012,2017-02-17,9999-12-31
W101,23.992333,121.610444,Hualien,花蓮美崙,1,17,2011-05-18,2013-08-07
W102,24.72328,121.158085,Hsinchu,新竹大平地,1,215,2011-03-24,2015-06-09
W102,24.72328,121.158085,Hsinchu,新竹大平地,1,215,2015-06-10,9999-12-31
W103,23.1252,121.2287,Taitung,台東池上,1,270,2011-07-03,9999-12-31
W104,22.647167,120.602278,Pingtung,屏東科大,1,52,2011-07-03,2019-04-09
W104,22.647167,120.602278,Pingtung,屏東科大,1,52,2019-04-10,9999-12-31
W105,23.6101,120.5703,Yunlin,雲林古坑,1,185,2011-07-03,2019-07-23
W105,23.6101,120.5703,Yunlin,雲林古坑,1,185,2019-07-24,9999-12-31
W106,24.597361,121.840139,Ilan,蘇澳國小,1,22,2011-04-27,2016-10-26
W107,23.377139,120.565722,Chiayi,嘉義楊燦堯,1,362,2011-07-03,2017-05-22
W108,24.968239,121.19525,Taoyuan,中央大學,2,31,2011-02-22,2021-03-18
W108,24.970061,121.194556,Taoyuan,中央大學,4,130,2021-03-22,9999-12-31
W109,25.040724,121.614071,Taipei,台北中研院,1,24,2011-03-31,9999-12-31
W10A,25.149553,121.773078,Keelung,海洋大學,1,53,2011-03-09,9999-12-31
W10B,25.014989,121.537161,Taipei,地質系館,1,17,2012-07-01,9999-12-31
W10C,25.021383,121.536708,Taipei,地質全變,3,78,2010-12-31,9999-12-31
W10D,24.982217,121.5084,NewTaipei,地質調查所,1,18,2012-09-21,2016-04-12
W10D,24.982217,121.5084,NewTaipei,地質調查所,1,18,2016-04-13,9999-12-31
W10E,25.038888,121.513055,Taipei,北一女中,1,18,2012-10-26,2019-03-26
W10E,25.038888,121.513055,Taipei,北一女中,1,18,2019-03-27,9999-12-31
W10F,23.895944,121.548355,Hualien,東華大學,4,58,2013-05-01,9999-12-31
W110,22.6315,121.0036,Taitung,新興國小,1,81,2016-05-30,9999-12-31
W111,22.807306,121.093167,Taitung,賓朗國小,1,121,2011-10-27,9999-12-31
W112,22.381833,120.856639,Taitung,新化國小,1,483,2011-10-25,9999-12-31
W113,22.969222,121.116972,Taitung,武陵國小,1,284,2011-10-28,9999-12-31
W114,22.998278,121.285194,Taitung,泰源國小,1,92,2011-11-03,9999-12-31
W115,22.613472,121.004444,Taitung,大王國小,1,24,2011-10-26,2016-03-31
W116,22.878194,121.227889,Taitung,都蘭國小,1,89,2011-11-02,9999-12-31
W117,23.412861,121.482028,Taitung,樟原國小,1,40,2011-11-02,9999-12-31
W118,22.893583,121.063528,Taitung,紅葉國小,1,241,2011-10-28,9999-12-31
W119,22.383278,120.910944,Taitung,大鳥國小,1,49,2011-10-25,9999-12-31
W11A,23.32575,121.439639,Taitung,忠勇國小,1,151,2011-11-03,2015-09-17
W11B,22.36475,120.9055,Taitung,大武國小,1,30,2011-10-25,9999-12-31
W11C,22.294167,120.868222,Taitung,安朔國小,1,40,2011-10-25,2019-09-24
W11C,22.294167,120.868222,Taitung,安朔國小,1,40,2019-09-25,9999-12-31
W11D,22.698444,121.026167,Taitung,溫泉國小,1,62,2011-10-27,9999-12-31
W11E,22.462417,120.940806,Taitung,大溪國小,2,12,2011-10-25,9999-12-31
W11F,22.532417,120.954333,Taitung,賓茂國小,1,31,2011-10-26,9999-12-31
W120,23.075028,121.352583,Taitung,和平國小,1,69,2011-11-03,2020-11-04
W120,23.075028,121.352583,Taitung,和平分校,1,69,2020-11-05,9999-12-31
W121,23.191944,121.395861,Taitung,博愛國小,1,25,2011-11-03,2020-02-06
W121,23.191944,121.395861,Taitung,博愛分校,1,25,2020-02-07,9999-12-31
W122,22.79525,121.193611,Taitung,富岡國小,1,38,2011-11-02,9999-12-31
W123,22.747306,121.151444,Taitung,復興國小,1,32,2011-11-02,9999-12-31
W124,23.044833,121.146194,Taitung,崁頂國小,1,302,2011-10-28,9999-12-31
W125,22.898798,121.149922,Taitung,鸞山國小,1,162,2011-10-27,2017-07-02
W125,22.898798,121.149922,Taitung,鸞山國小,1,162,2017-07-03,2019-05-07
W125,22.898798,121.149922,Taitung,鸞山國小,1,162,2019-05-08,9999-12-31
W126,22.7655,121.062806,Taitung,新園國小,1,105,2011-10-27,9999-12-31
W127,22.860361,121.091972,Taitung,初鹿國小,1,169,2011-10-27,9999-12-31
W128,22.746833,121.137028,Taitung,豐榮國小,-1,33,2011-11-02,2019-05-08
W128,22.746833,121.137028,Taitung,豐榮國小,1,33,2019-05-09,9999-12-31
W129,22.477611,120.907528,Taitung,台坂國小,1,236,2011-10-26,9999-12-31
W12A,23.131889,121.176833,Taitung,錦屏國小,2,351,2012-03-21,9999-12-31
W12B,22.727861,121.108417,Taitung,豐源國小,1,21,2012-03-21,9999-12-31
W12C,23.169083,121.041028,Taitung,霧鹿國小,1,911,2012-03-21,9999-12-31
W12D,23.186861,121.024833,Taitung,利稻國小,1,1037,2012-03-21,2021-03-29
W12D,23.186861,121.024833,Taitung,利稻分校,1,1037,2021-03-30,9999-12-31
W12E,22.5877,120.9937,Taitung,香蘭國小,1,27,2016-05-30,9999-12-31
W12F,22.5953,120.9617,Taitung,嘉蘭國小,1,83,2016-05-31,9999-12-31
W130,22.4536,120.8874,Taitung,土坂國小,2,135,2016-05-31,9999-12-31
W131,22.591444,120.632472,Pingtung,泰武國中,1,53,2012-12-05,9999-12-31
W132,22.427194,120.628639,Pingtung,力里國小,1,33,2012-12-05,2015-08-20
W132,22.427194,120.628639,Pingtung,力里國小,1,33,2015-08-21,2016-03-31
W132,22.427194,120.628639,Pingtung,力里國小,1,33,2016-04-01,9999-12-31
W133,22.702444,120.635556,Pingtung,隘寮國小,2,135,2012-12-05,9999-12-31
W134,22.771139,120.496528,Pingtung,里港國中,1,55,2012-12-05,2013-07-22
W134,22.771139,120.496528,Pingtung,里港國中,1,55,2013-07-23,9999-12-31
W135,22.667028,120.600139,Pingtung,崇文國小,1,74,2012-12-05,9999-12-31
W136,22.463472,120.622417,Pingtung,望嘉國小,1,33,2012-12-05,2017-08-24
W136,22.463472,120.622417,Pingtung,望嘉國小,1,33,2017-08-25,9999-12-31
W137,21.943611,120.800972,Pingtung,墾丁國小,2,20,2012-12-05,9999-12-31
W138,22.837878,120.638889,Pingtung,青葉國小,2,214,2012-12-05,9999-12-31
W139,22.862861,120.634528,Pingtung,新豐國小,2,122,2012-12-05,2014-08-14
W139,22.862861,120.634528,Pingtung,新豐國小,2,122,2014-08-15,9999-12-31
W13A,22.547778,120.543167,Pingtung,光華國小,2,32,2012-12-05,9999-12-31
W13B,22.528028,120.627528,Pingtung,古樓國小,2,99,2012-12-05,9999-12-31
W13C,22.743639,120.639139,Pingtung,賽嘉國小,2,134,2012-12-05,9999-12-31
W13D,22.129167,120.776361,Pingtung,牡丹國中,2,303,2012-12-05,9999-12-31
W13E,22.024,120.839667,Pingtung,滿州國中,3,42,2012-12-05,9999-12-31
W13F,22.022972,120.721,Pingtung,大平國小,1,29,2012-12-05,9999-12-31
W140,22.816806,120.640972,Pingtung,青山國小,2,163,2012-12-05,9999-12-31
W141,22.630694,120.594028,Pingtung,泰安國小,1,50,2012-12-05,9999-12-31
W142,22.330441,120.621078,Pingtung,加祿國小,2,10,2012-12-05,9999-12-31
W143,22.005861,120.746333,Pingtung,恆春國小,3,46,2012-12-05,9999-12-31
W144,22.717194,120.486222,Pingtung,九如國中,1,57,2012-12-05,2020-10-18
W144,22.717194,120.486222,Pingtung,九如國中,1,57,2020-10-19,9999-12-31
W145,22.765972,120.644639,Pingtung,口社國小,2,134,2012-12-05,9999-12-31
W146,22.176306,120.837222,Pingtung,牡丹國小,1,302,2012-12-05,9999-12-31
W147,22.072806,120.716,Pingtung,車城國中,1,14,2012-12-05,2021-10-19
W147,22.072806,120.716,Pingtung,車城國中,1,14,2021-10-20,9999-12-31
W148,22.652639,120.630611,Pingtung,佳義國小,2,70,2012-12-05,2020-09-01
W148,22.652639,120.630611,Pingtung,佳義國小,1,70,2020-09-02,9999-12-31
W149,22.370639,120.626667,Pingtung,春日國小,2,61,2012-12-05,9999-12-31
W14A,22.124722,120.846278,Pingtung,高士國小,1,184,2012-12-05,9999-12-31
W14B,22.235111,120.802972,Pingtung,草埔國小,2,270,2012-03-21,9999-12-31
W14C,21.97035,120.7345,Pingtung,龍泉分校,1,31,2016-04-29,9999-12-31
W14D,21.9403,120.7325,Pingtung,水泉國小,1,63,2018-07-13,9999-12-31
W14E,22.337434,120.368618,Pingtung,琉球國小,1,43,2016-10-13,2019-10-27
W14E,22.337434,120.368618,Pingtung,琉球國小,1,43,2019-10-28,9999-12-31
W14F,21.913,120.8482,Pingtung,鵝鑾分校,1,11,2018-07-12,9999-12-31
W150,24.6617,120.8212,Miaoli,海寶國小,1,17,2018-06-01,9999-12-31
W151,24.443917,120.874111,Miaoli,華興國小,2,254,2012-02-16,9999-12-31
W152,24.573944,120.936528,Miaoli,永興國小,1,136,2012-02-15,9999-12-31
W153,24.578139,120.849333,Miaoli,頭屋國中,1,38,2012-02-20,9999-12-31
W154,24.498111,120.827917,Miaoli,公館國中,1,131,2012-02-20,9999-12-31
W155,24.34375,120.766556,Miaoli,鯉魚國小,1,374,2012-02-22,2017-11-09
W155,24.34375,120.766556,Miaoli,鯉魚國小,2,374,2017-11-10,9999-12-31
W156,24.422111,120.910444,Miaoli,泰安國中小,1,625,2012-02-16,9999-12-31
W157,24.490167,120.789111,Miaoli,文林國中,1,169,2012-02-21,2021-10-06
W157,24.490167,120.789111,Miaoli,文林國中,2,169,2021-10-07,9999-12-31
W158,24.707639,120.92375,Miaoli,頂埔國小,1,105,2012-02-13,9999-12-31
W159,24.298167,120.849389,Miaoli,內灣國小,1,358,2012-02-22,2019-08-20
W159,24.298167,120.849389,Miaoli,內灣國小,1,358,2019-08-21,9999-12-31
W15A,24.410492,120.902234,Miaoli,大南國小,1,374,2012-02-16,9999-12-31
W15B,24.554278,120.812472,Miaoli,苗栗國中,1,96,2012-02-20,9999-12-31
W15C,24.388228,120.971512,Miaoli,梅園國小,2,827,2012-02-17,9999-12-31
W15D,24.476556,120.891083,Miaoli,豐林國小,1,132,2012-02-15,9999-12-31
W15E,24.686667,120.9605,Miaoli,信德國小,1,105,2012-02-14,9999-12-31
W15F,24.409472,120.765306,Miaoli,三義高中,2,337,2012-02-21,9999-12-31
W160,24.544696,120.922947,Miaoli,獅潭國中,1,132,2012-02-15,9999-12-31
W161,24.61725,120.946694,Miaoli,大河國小,1,104,2012-02-13,2015-03-12
W162,24.382417,120.759472,Miaoli,育英國小,1,391,2012-02-22,9999-12-31
W163,24.397167,120.868083,Miaoli,南湖國中,1,381,2012-02-17,2015-08-23
W163,24.397167,120.868083,Miaoli,南湖國中,1,381,2015-08-24,9999-12-31
W164,24.600222,121.03975,Miaoli,東河國小,1,271,2012-02-14,2017-06-29
W164,24.600222,121.03975,Miaoli,東河國小,1,271,2017-06-30,9999-12-31
W165,24.4015,120.765833,Miaoli,僑成國小,1,340,2012-02-21,9999-12-31
W166,24.604417,121.000722,Miaoli,南庄國中,1,278,2012-02-14,9999-12-31
W167,24.707639,120.895139,Miaoli,大同國中,1,52,2012-02-13,9999-12-31
W168,24.359,120.947444,Miaoli,象鼻國小,2,831,2012-02-17,9999-12-31
W169,24.6557,120.9553,Miaoli,三灣國小,1,97,2015-03-26,2017-12-04
W169,24.6557,120.9553,Miaoli,三灣國小,1,97,2017-12-05,9999-12-31
W16A,24.3518,120.625,Taichung,大甲國小,1,58,2014-01-09,9999-12-31
W16B,24.301406,120.71145,Taichung,七星國小,2,213,2013-12-27,9999-12-31
W16C,24.195119,120.66278,Taichung,北屯新興國小,1,128,2013-12-27,9999-12-31
W16D,24.196251,120.547445,Taichung,龍泉國小,-1,48,2014-01-09,2018-10-05
W16D,24.196251,120.547445,Taichung,龍泉國小,1,48,2018-10-06,2022-02-14
W16D,24.196251,120.547445,Taichung,龍泉國小,1,48,2022-02-15,9999-12-31
W16E,24.1073,120.6233,Taichung,烏日國小,1,39,2014-01-09,9999-12-31
W16F,24.204727,120.726523,Taichung,潭子新興國小,1,197,2013-12-27,9999-12-31
W170,24.207888,120.839611,Taichung,成功國小,1,420,2012-07-17,9999-12-31
W171,24.213055,120.704472,Taichung,潭子國小,1,420,2012-07-17,9999-12-31
W172,24.172666,120.719555,Taichung,軍功國小,1,140,2012-07-17,9999-12-31
W173,24.15725,120.828388,Taichung,中和國小,1,500,2012-07-17,9999-12-31
W174,24.255784,121.259383,Taichung,梨山國小,1,2029,2012-07-17,9999-12-31
W175,24.265987,120.807789,Taichung,土牛國小,1,328,2012-07-17,9999-12-31
W176,24.332337,120.653446,Taichung,外埔國小,1,143,2012-07-17,9999-12-31
W177,24.291833,120.908861,Taichung,自由國小,1,500,2012-07-17,9999-12-31
W178,24.265833,120.573083,Taichung,清水國小,1,50,2012-07-17,9999-12-31
W179,24.254305,120.721027,Taichung,豐原國小,1,250,2012-07-17,9999-12-31
W17A,24.100683,120.689738,Taichung,大元國小,2,55,2012-07-17,9999-12-31
W17B,24.317212,121.293263,Taichung,平等國小,2,1601,2012-07-17,9999-12-31
W17C,24.110055,120.732,Taichung,車籠埔國小,1,110,2012-07-17,9999-12-31
W17D,24.028416,120.69775,Taichung,萬豐國小,2,100,2012-07-17,9999-12-31
W17E,24.183444,120.929583,Taichung,白冷國小,1,600,2012-07-17,9999-12-31
W17F,24.057277,120.69775,Taichung,霧峰國小,2,100,2012-07-17,9999-12-31
W180,24.307083,120.695083,Taichung,后里國中,1,210,2012-07-17,9999-12-31
W181,24.117888,120.795805,Taichung,東汴國小,1,278,2012-07-17,9999-12-31
W182,24.194055,120.81225,Taichung,協成國小,1,500,2012-07-17,2018-10-03
W182,24.194055,120.81225,Taichung,協成國小,1,500,2018-10-04,9999-12-31
W183,24.177083,120.97975,Taichung,博愛國小,2,700,2012-07-17,9999-12-31
W184,24.222232,120.65018,Taichung,大雅國小,1,139,2012-07-17,9999-12-31
W185,24.32777,120.920767,Taichung,博屋瑪國小,1,568,2012-07-17,9999-12-31
W186,24.236972,120.880194,Taichung,中坑國小,1,500,2012-07-17,9999-12-31
W187,24.20525,120.839388,Taichung,東華國中,1,450,2012-07-17,2016-11-09
W188,24.252805,120.834972,Taichung,中山國小,1,370,2012-07-17,9999-12-31
W189,24.163777,120.881888,Taichung,福民國小,1,600,2012-07-17,9999-12-31
W18A,24.202638,121.006277,Taichung,谷關分校,1,800,2012-07-17,2020-05-12
W18A,24.202638,121.006277,Taichung,谷關分校,1,800,2020-05-13,9999-12-31
W18B,24.171194,120.895861,Taichung,和平國小,1,600,2012-07-17,9999-12-31
W18C,24.122861,120.751694,Taichung,頭汴國小,1,190,2012-07-17,9999-12-31
W18D,23.5651,120.4754,Chiayi,中正大學,4,76.2,2014-03-19,2020-03-10
W18D,23.5651,120.4754,Chiayi,中正大學,4,76.2,2020-03-11,9999-12-31
W18E,23.5144,120.313,Chiayi,安和國小,1,13,2014-03-18,9999-12-31
W18F,23.3426,120.1745,Chiayi,新岑國小,1,5.6,2014-03-18,2020-03-11
W18F,23.3426,120.1745,Chiayi,新岑國小,1,5.6,2020-03-12,9999-12-31
W190,23.475246,120.619825,Chiayi,大湖國小,1,728,2012-08-31,9999-12-31
W191,23.294647,120.591526,Chiayi,大埔國小,1,251,2012-08-31,2016-07-31
W191,23.294647,120.591526,Chiayi,大埔國中小,1,251,2016-08-01,9999-12-31
W192,23.557642,120.481859,Chiayi,三興國小,1,110,2012-08-31,9999-12-31
W193,23.558023,120.554261,Chiayi,大南國小,1,174,2012-08-31,9999-12-31
W194,23.461297,120.240665,Chiayi,大同國小,1,10,2012-08-31,9999-12-31
W195,23.40308,120.512268,Chiayi,同仁國小,1,112,2012-08-31,2015-11-04
W195,23.40308,120.512268,Chiayi,同仁國小,1,112,2015-11-05,9999-12-31
W196,23.454856,120.330908,Chiayi,太保國小,1,18,2012-08-31,9999-12-31
W197,23.542467,120.63428,Chiayi,太興國小,1,773,2012-08-31,9999-12-31
W198,23.55535,120.429316,Chiayi,民雄國小,1,31,2012-08-31,9999-12-31
W199,23.52969,120.73967,Chiayi,來吉國小,1,820,2012-08-31,9999-12-31
W19A,23.576848,120.590405,Chiayi,梅圳國小,1,382,2012-08-31,9999-12-31
W19B,23.467104,120.248046,Chiayi,朴子國小,1,10,2012-08-31,9999-12-31
W19C,23.381727,120.529968,Chiayi,沄水國小,1,179,2012-08-31,2015-11-04
W19C,23.381727,120.529968,Chiayi,沄水國小,1,179,2015-11-05,9999-12-31
W19D,23.520225,120.5533,Chiayi,竹崎國小,1,141,2012-08-31,9999-12-31
W19E,23.576218,120.749962,Chiayi,豐山國小,1,777,2012-08-31,9999-12-31
W19F,23.516364,120.808578,Chiayi,香林國小,1,2203,2012-08-31,2017-02-17
W19F,23.516364,120.808578,Chiayi,香林國小,1,2203,2017-02-18,9999-12-31
W200,23.300359,120.666778,Chiayi,茶山國小,1,419,2012-08-31,9999-12-31
W201,23.587508,120.551566,Chiayi,梅北國小,1,140,2012-08-31,9999-12-31
W202,23.4724,120.67,Chiayi,光華國小,1,788,2012-08-31,9999-12-31
W203,23.555508,120.669083,Chiayi,瑞峰國小,1,1526,2012-08-31,9999-12-31
W204,23.382941,120.668102,Chiayi,山美國小,1,504,2012-08-31,9999-12-31
W205,23.439022,120.604678,Chiayi,黎明國小,2,245,2012-08-31,9999-12-31
W206,23.427325,120.557104,Chiayi,灣潭國小,1,177,2012-08-31,2023-03-22
W207,23.424967,120.39542,Chiayi,水上國中,1,28,2012-08-31,9999-12-31
W208,23.468355,120.701414,Chiayi,阿里山中小,2,1181,2012-08-31,9999-12-31
W209,23.553101,120.57724,Chiayi,安靖國小,1,390,2012-08-31,9999-12-31
W20A,23.58291,120.627356,Chiayi,龍眼分校,1,1057,2012-08-31,2016-12-06
W20B,23.485024,120.557558,Chiayi,昇平國中,1,132,2012-08-31,9999-12-31
W20C,23.4533,120.7492,Chiayi,達邦國小,2,969.6,2014-03-19,9999-12-31
W20D,23.4947,120.4256,Chiayi,北園國小,1,36.9,2014-03-19,2021-04-26
W20D,23.4947,120.4256,Chiayi,北園國小,1,36.9,2021-04-27,9999-12-31
W20E,23.4652,120.438,Chiayi,興嘉國小,1,39,2014-03-18,2021-04-26
W20E,23.4652,120.438,Chiayi,興嘉國小,1,39,2021-04-27,9999-12-31
W20F,23.484056,120.487249,Chiayi,文雅國小,1,124,2014-03-18,9999-12-31
W210,23.344227,120.474014,Tainan,仙草國小,1,139,2012-11-30,9999-12-31
W211,23.376845,120.445009,Tainan,竹門國小,1,42,2012-11-30,9999-12-31
W212,23.368009,120.413187,Tainan,大竹國小,1,39,2012-11-30,9999-12-31
W213,23.352203,120.413945,Tainan,白河國小,1,39,2012-11-30,9999-12-31
W214,23.285872,120.364627,Tainan,重溪國小,1,23,2012-11-30,9999-12-31
W215,23.397338,120.440479,Tainan,內角國小,1,35,2012-11-30,9999-12-31
W216,23.258062,120.372772,Tainan,果毅國小,1,26,2012-11-30,2020-03-24
W217,23.323517,120.405117,Tainan,東山國小,1,56.2,2012-11-30,9999-12-31
W218,23.18925,120.342317,Tainan,官田國小,1,20.3,2012-11-30,9999-12-31
W219,23.07935,120.2958,Tainan,新市國小,1,15.3,2012-11-30,9999-12-31
W21A,23.100767,120.35565,Tainan,山上國小,1,33.4,2012-11-30,9999-12-31
W21B,23.037417,120.31105,Tainan,新化國小,1,65.7,2012-11-30,9999-12-31
W21C,23.068283,120.34915,Tainan,那拔國小,1,110,2012-11-30,9999-12-31
W21D,22.96995,120.297367,Tainan,歸仁國小,1,62.6,2012-11-30,2023-03-16
W21D,22.96995,120.297367,Tainan,歸仁國小,1,62.6,2023-03-17,9999-12-31
W21E,22.964733,120.3595,Tainan,龍崎國小,1,93.2,2012-11-30,9999-12-31
W21F,22.904367,120.352567,Tainan,崇和國小,1,43,2012-11-30,2018-12-04
W21F,22.904367,120.352567,Tainan,崇和國小,1,43,2018-12-05,9999-12-31
W220,23.033317,120.267833,Tainan,龍潭國小,1,8.4,2012-11-30,9999-12-31
W221,23.02595,120.256133,Tainan,永康國小,1,26.2,2012-11-30,9999-12-31
W222,23.006283,120.258483,Tainan,崑山國小,1,15.4,2012-11-30,9999-12-31
W223,22.993517,120.212983,Tainan,博愛國小,1,39.6,2012-11-30,9999-12-31
W224,22.982567,120.239067,Tainan,復興國小,1,27.7,2012-11-30,9999-12-31
W225,22.945667,120.230617,Tainan,虎山國小,1,30,2012-11-30,9999-12-31
W226,23.1861,120.252983,Tainan,麻豆國小,1,1.4,2012-11-30,9999-12-31
W227,23.189083,120.192467,Tainan,佳興國小,1,4.4,2012-11-30,9999-12-31
W228,23.04905,120.173883,Tainan,海東國小,1,15.4,2012-11-30,9999-12-31
W229,23.2671,120.246383,Tainan,竹埔國中小,1,0,2012-11-30,9999-12-31
W22A,22.9633,120.235783,Tainan,德高國小,1,36.2,2012-11-30,9999-12-31
W22B,23.344383,120.315883,Tainan,新東國小,1,23.8,2012-11-30,9999-12-31
W22C,23.055867,120.40415,Tainan,左鎮國小,1,73.1,2012-11-30,2019-06-11
W22C,23.055867,120.40415,Tainan,左鎮國小,1,73.1,2019-06-12,9999-12-31
W22D,23.275383,120.3129,Tainan,柳營國小,2,14.3,2012-11-30,9999-12-31
W22E,22.962083,120.253817,Tainan,仁德國小,1,29.6,2012-11-30,9999-12-31
W22F,23.098167,120.225067,Tainan,南安國小,1,9.4,2012-11-30,9999-12-31
W230,23.07805,120.429367,Tainan,層林國小,1,73.3,2012-11-30,9999-12-31
W231,23.04605,120.445683,Tainan,西埔國小,2,79,2012-11-30,9999-12-31
W232,23.044617,120.470283,Tainan,南化國小,1,100.2,2012-11-30,9999-12-31
W233,23.074167,120.519383,Tainan,玉山國小,1,71.9,2012-11-30,2015-11-04
W233,23.074167,120.519383,Tainan,玉山國小,1,71.9,2015-11-05,9999-12-31
W234,23.121033,120.458983,Tainan,玉井國小,1,71.3,2012-11-30,9999-12-31
W235,23.17335,120.595267,Tainan,瑞峰國小,1,233.1,2012-11-30,9999-12-31
W236,23.1745,120.485583,Tainan,楠西國小,1,98.9,2012-11-30,9999-12-31
W237,23.280578,120.467383,Tainan,青山國小,1,130.2,2012-11-30,9999-12-31
W238,23.0643,120.3891,Tainan,光榮國小,1,42,2016-07-12,9999-12-31
W239,23.3065,120.3164,Tainan,新營國小,1,18,2016-07-12,9999-12-31
W23A,23.1225,120.393,Tainan,二溪國小,1,37,2018-05-02,9999-12-31
W23B,23.025,120.3487,Tainan,口埤國小,2,50,2018-05-03,9999-12-31
W23C,23.331,120.507,Tainan,關嶺分校,1,388,2018-06-28,9999-12-31
W23D,23.3665,120.3662,Tainan,後壁國小,1,24,2018-06-27,9999-12-31
W23E,24.7043,121.1834,Hsinchu,內灣國小,1,262,2018-08-07,9999-12-31
W23F,24.6774,121.2088,Hsinchu,梅花國小,1,526,2018-08-08,9999-12-31
W240,24.675433,121.059717,Hsinchu,大坪國小,1,208.7,2012-12-24,9999-12-31
W241,24.631533,121.118058,Hsinchu,五峰國小,1,429,2012-12-24,9999-12-31
W242,24.721033,120.996617,Hsinchu,三峰國小,1,169.7,2012-12-20,2015-03-20
W243,24.76715,121.0576,Hsinchu,二重國小,1,153.2,2012-12-21,9999-12-31
W244,24.739917,121.021717,Hsinchu,寶山國小,1,82,2012-12-21,9999-12-31
W245,24.686917,120.988267,Hsinchu,富興國小,1,104.7,2012-12-21,9999-12-31
W246,24.735683,121.088383,Hsinchu,竹東國小,1,131.5,2012-12-24,9999-12-31
W247,24.575233,121.105417,Hsinchu,桃山國小,1,523.5,2012-12-24,9999-12-31
W248,24.77395,121.082533,Hsinchu,芎林國小,1,139,2012-12-21,9999-12-31
W249,24.799267,120.999417,Hsinchu,建功國小,1,51,2012-12-29,9999-12-31
W24A,24.899167,121.038017,Hsinchu,信勢國小,1,74.4,2013-01-02,9999-12-31
W24B,24.7069,121.203033,Hsinchu,尖石國中,1,335.2,2013-01-07,9999-12-31
W24C,24.728183,121.22605,Hsinchu,尖石國小,1,354.7,2013-01-07,9999-12-31
W24D,24.618633,121.285517,Hsinchu,秀巒國小,1,841.4,2013-01-09,2020-09-22
W24D,24.618633,121.285517,Hsinchu,秀巒國小,2,841.4,2020-09-23,9999-12-31
W24E,24.768267,121.22455,Hsinchu,錦山國小,1,210.1,2013-01-08,9999-12-31
W24F,24.65975,121.3019,Hsinchu,玉峰國小,2,728.6,2013-01-08,9999-12-31
W250,24.579967,121.302283,Hsinchu,新光國小,1,1600,2013-01-09,9999-12-31
W251,24.796267,120.973983,Hsinchu,竹蓮國小,1,41.9,2013-01-03,9999-12-31
W252,24.801567,121.140667,Hsinchu,坪林國小,1,134.5,2013-01-03,9999-12-31
W253,24.79625,120.944067,Hsinchu,香山國小,1,24.4,2013-01-03,9999-12-31
W254,24.796917,120.966517,Hsinchu,新竹國小,1,21.4,2013-01-04,9999-12-31
W255,24.7335,120.967267,Hsinchu,新城國小,1,29.7,2012-12-20,9999-12-31
W256,24.887533,121.094483,Hsinchu,長安國小,1,169.5,2013-01-02,9999-12-31
W257,24.878806,121.060796,Hsinchu,湖口國小,1,102.5,2013-01-02,9999-12-31
W258,24.7822,121.011733,Hsinchu,科園國小,1,99.6,2013-01-02,9999-12-31
W259,24.726233,120.92955,Hsinchu,南隘國小,1,14.3,2013-01-02,9999-12-31
W25A,24.6481,121.1513,Hsinchu,花園國小,2,486,2016-12-27,2020-07-02
W25A,24.6481,121.1513,Hsinchu,花園國小,2,486,2020-07-03,9999-12-31
W25B,24.7891,120.9964,Hsinchu,交大土木,3,85,2017-03-15,9999-12-31
W25C,24.6894,121.0201,Hsinchu,峨眉國小,1,99,2017-05-16,2017-06-29
W25C,24.6894,121.0201,Hsinchu,峨眉國小,1,99,2017-06-30,9999-12-31
W25D,24.701,121.0534,Hsinchu,北埔國小,1,135,2017-06-28,9999-12-31
W25E,24.7056,121.1058,Hsinchu,田寮國小,1,164,2017-06-28,9999-12-31
W25F,24.6803,121.2472,Hsinchu,錦屏國小,1,605,2018-08-07,9999-12-31
W260,24.8591,121.3601,NewTaipei,五寮國小,1,171.5,2013-04-01,9999-12-31
W261,24.872733,121.4045,NewTaipei,插角國小,1,169.7,2013-04-01,9999-12-31
W262,24.853583,121.43735,NewTaipei,有木國小,1,244.5,2013-04-01,9999-12-31
W263,24.958333,121.333167,NewTaipei,永吉國小,2,128.5,2013-04-01,2017-12-13
W263,24.958333,121.333167,NewTaipei,永吉國小,2,128.5,2017-12-14,2022-09-01
W263,24.958333,121.333167,NewTaipei,永吉國小,2,128.5,2022-09-02,9999-12-31
W264,24.955933,121.389367,NewTaipei,柑園國小,3,38,2013-04-01,9999-12-31
W265,24.971224,121.442442,NewTaipei,土城國小,1,23,2013-04-01,9999-12-31
W266,24.926238,121.447213,NewTaipei,建安國小,1,94,2013-04-01,9999-12-31
W267,24.997667,121.424283,NewTaipei,文林國小,2,38.2,2013-04-01,9999-12-31
W268,25.016667,121.405833,NewTaipei,三多國小,1,105,2013-04-01,2018-09-18
W268,25.016667,121.405833,NewTaipei,三多國小,1,105,2018-09-19,9999-12-31
W269,25.024105,121.413752,NewTaipei,丹鳳國小,3,21,2013-04-01,9999-12-31
W26A,25.031167,121.443233,NewTaipei,豐年國小,1,29.5,2013-04-01,2018-09-19
W26B,25.04466,121.426907,NewTaipei,明志國小,1,12,2013-04-01,9999-12-31
W26C,25.062215,121.431638,NewTaipei,泰山國小,2,22,2013-04-01,2022-08-25
W26C,25.062215,121.431638,NewTaipei,泰山國小,2,22,2022-08-26,9999-12-31
W26D,25.071315,121.433947,NewTaipei,德音國小,1,27,2013-04-01,9999-12-31
W26E,25.082678,121.437393,NewTaipei,五股國小,2,40,2013-04-01,2019-09-03
W26E,25.082678,121.437393,NewTaipei,五股國小,1,40,2019-09-04,9999-12-31
W26F,25.080467,121.389683,NewTaipei,林口國小,1,279.6,2013-04-01,9999-12-31
W270,25.107867,121.339233,NewTaipei,嘉寶國小,2,182.8,2013-04-01,9999-12-31
W271,25.14945,121.403433,NewTaipei,八里國小,1,22.2,2013-04-01,9999-12-31
W272,25.09995,121.45085,NewTaipei,成州國小,2,7.7,2013-04-01,9999-12-31
W273,25.084333,121.46965,NewTaipei,蘆洲國小,1,15.6,2013-04-01,9999-12-31
W274,25.077222,121.480278,NewTaipei,永福國小,1,17,2013-04-01,9999-12-31
W275,25.050233,121.47545,NewTaipei,興穀國小,2,13.8,2013-04-01,2021-08-30
W275,25.050281,121.474908,NewTaipei,興穀國小,1,1,2021-08-31,9999-12-31
W276,25.0156,121.48339,NewTaipei,光復國小,1,53,2013-04-01,9999-12-31
W277,25.003317,121.46325,NewTaipei,後埔國小,1,28,2013-04-01,9999-12-31
W278,25.003483,121.517283,NewTaipei,永和國小,1,39.5,2013-04-01,9999-12-31
W279,24.95205,121.486717,NewTaipei,雙城國小,2,99.3,2013-04-01,9999-12-31
W27A,24.922467,121.5468,NewTaipei,屈尺國小,2,59.8,2013-04-01,9999-12-31
W27B,24.90215,121.553133,NewTaipei,龜山國小,2,66.7,2013-04-01,9999-12-31
W27C,24.862952,121.554462,NewTaipei,烏來國小,1,163,2013-04-01,2021-08-30
W27C,24.862952,121.554462,NewTaipei,烏來國小,1,163,2021-08-31,9999-12-31
W27D,25.14756,121.460037,NewTaipei,竹圍國小,1,22,2013-04-01,9999-12-31
W27E,25.157833,121.483424,NewTaipei,坪頂國小,1,280,2013-04-01,9999-12-31
W27F,25.257867,121.5014,NewTaipei,三芝國小,2,63,2013-04-01,9999-12-31
W280,25.291961,121.567179,NewTaipei,石門國小,1,1.9,2013-04-01,9999-12-31
W281,25.239444,121.630556,NewTaipei,中角國小,1,73,2013-04-01,9999-12-31
W282,25.222355,121.636885,NewTaipei,金山國小,2,18,2013-04-01,9999-12-31
W283,25.219013,121.602608,NewTaipei,三和國小,1,70,2013-04-01,2020-02-25
W283,25.219013,121.602608,NewTaipei,三和國小,1,70,2020-02-26,9999-12-31
W284,25.167375,121.638686,NewTaipei,大坪國小,2,354,2013-04-01,2018-08-02
W284,25.167375,121.638686,NewTaipei,大坪國小,1,354,2018-08-03,2021-05-19
W284,25.167375,121.638686,NewTaipei,大坪國小,1,354,2021-05-20,9999-12-31
W285,25.176537,121.688634,NewTaipei,萬里國小,2,29,2013-04-01,9999-12-31
W286,25.10772,121.804292,NewTaipei,瑞芳國小,1,120,2013-04-01,9999-12-31
W287,25.120923,121.919092,NewTaipei,鼻頭國小,1,34,2013-04-01,9999-12-31
W288,25.112428,121.919473,NewTaipei,和美國小,2,25,2013-04-01,9999-12-31
W289,25.0549,121.92432,NewTaipei,澳底國小,2,5,2013-04-01,9999-12-31
W28A,25.01651,121.988533,NewTaipei,福連國小,1,28,2013-04-01,9999-12-31
W28B,25.03304,121.86792,NewTaipei,雙溪國小,2,54,2013-04-01,9999-12-31
W28C,25.0151,121.80441,NewTaipei,柑林國小,1,112,2013-04-01,9999-12-31
W28D,25.02699,121.73841,NewTaipei,平溪國小,2,228,2013-04-01,9999-12-31
W28E,25.007658,121.688042,NewTaipei,永定國小,1,145,2013-04-01,9999-12-31
W28F,24.99069,121.658658,NewTaipei,石碇國小,1,134,2013-04-01,9999-12-31
W290,25.047819,121.618753,NewTaipei,白雲國小,2,60,2013-04-01,9999-12-31
W291,25.066754,121.655177,NewTaipei,汐止國小,1,18,2013-04-01,2021-02-08
W291,25.066754,121.655177,NewTaipei,汐止國小,1,18,2021-02-09,9999-12-31
W292,24.952989,121.636375,NewTaipei,雲海國小,2,569,2013-04-01,2019-09-04
W292,24.952989,121.636375,NewTaipei,雲海國小,1,569,2019-09-05,9999-12-31
W293,24.936034,121.710787,NewTaipei,坪林國小,3,217,2013-04-01,2022-11-24
W293,24.936034,121.710787,NewTaipei,坪林國小,3,217,2022-11-25,9999-12-31
W294,25.001655,121.616882,NewTaipei,深坑國小,1,18,2013-04-01,9999-12-31
W295,24.953571,121.538708,NewTaipei,新店國小,1,60,2013-04-01,9999-12-31
W296,24.777416,121.502129,NewTaipei,福山國小,1,425,2013-04-01,9999-12-31
W297,24.972988,121.548466,NewTaipei,三聯新店,-1,26,2015-10-27,9999-12-31
W298,25.0659,121.4803,NewTaipei,二重國中,1,7,2017-03-02,9999-12-31
W299,24.9549,121.3467,NewTaipei,建國國小,2,55,2017-12-14,9999-12-31
W29A,25.2038,121.5017,NewTaipei,興華國小,1,249,2018-01-18,9999-12-31
W29B,25.2587,121.5301,NewTaipei,橫山國小,2,172,2018-04-24,9999-12-31
W29C,25.1973,121.4447,NewTaipei,育英國小,1,63,2018-04-24,9999-12-31
W29D,25.056204,121.448047,NewTaipei,中信國小,4,1,2021-03-22,9999-12-31
W29E,24.939124,121.373232,NewTaipei,北大國小,1,34,2022-07-29,2023-01-05
W29E,24.939124,121.373232,NewTaipei,北大國小,1,34,2023-01-06,9999-12-31
W300,25.130896,121.746233,Keelung,基隆消防局,2,19,2014-01-09,9999-12-31
W301,25.150156,121.78272,Keelung,海大河工,5,13,2014-01-09,9999-12-31
W302,25.107268,121.665507,Keelung,復興國小,2,33,2014-01-23,2016-07-28
W302,25.107268,121.665507,Keelung,復興國小,2,33,2016-07-29,2023-06-26
W302,25.107268,121.665507,Keelung,復興國小,2,33,2023-06-27,9999-12-31
W303,25.138823,121.707255,Keelung,武崙國小,1,76,2014-01-22,2023-06-26
W303,25.138823,121.707255,Keelung,武崙國小,1,76,2023-06-27,9999-12-31
W304,25.098494,121.753993,Keelung,碇內國小,2,39,2014-01-23,2023-06-26
W304,25.098494,121.753993,Keelung,碇內國小,2,39,2023-06-27,9999-12-31
W305,25.128716,121.78325,Keelung,深澳國小,2,79,2014-01-23,2023-06-26
W305,25.128716,121.78325,Keelung,深澳國小,2,79,2023-06-27,9999-12-31
W306,25.124803,121.756741,Keelung,月眉國小,1,35,2014-01-23,2021-12-08
W306,25.124803,121.756741,Keelung,基隆社區大學,1,35,2021-12-09,9999-12-31
W310,24.976283,121.58365,Taipei,指南國小,2,87,2014-04-22,9999-12-31
W311,25.025767,121.5686,Taipei,吳興國小,2,16,2014-04-23,9999-12-31
W312,25.0286,121.568117,Taipei,信義國中,1,19,2014-04-23,9999-12-31
W313,25.049217,121.5486,Taipei,敦化國小,1,14,2014-04-22,9999-12-31
W314,25.050233,121.578617,Taipei,松山國小,1,13,2014-04-23,9999-12-31
W315,25.08725,121.6012,Taipei,大湖國小,1,29,2014-04-23,9999-12-31
W316,25.083633,121.56565,Taipei,西湖國小,1,12,2014-04-22,9999-12-31
W317,25.106067,121.563933,Taipei,雙溪國小,2,224,2014-04-22,9999-12-31
W318,25.12945,121.5766,Taipei,平等國小,1,405,2014-04-22,9999-12-31
W319,25.1685,121.538833,Taipei,湖田國小,1,656,2014-04-22,9999-12-31
W31A,25.1179,121.538367,Taipei,天母國中,1,31,2014-04-22,9999-12-31
W31B,25.092583,121.525067,Taipei,士林國小,1,10,2014-04-22,9999-12-31
W31C,25.066033,121.5125,Taipei,延平國小,1,8,2014-04-22,2017-03-02
W31D,25.1195,121.505017,Taipei,立農國小,1,10,2014-04-22,2014-06-03
W31D,25.1195,121.505017,Taipei,立農國小,1,10,2014-06-04,2015-10-25
W31D,25.1195,121.505017,Taipei,立農國小,1,10,2015-10-26,9999-12-31
W31E,25.141933,121.509783,Taipei,義方國小,1,67,2014-04-22,9999-12-31
W31F,25.1266,121.466217,Taipei,關渡國小,1,18,2014-04-22,9999-12-31
W320,25.0835,121.5724,Taipei,麗山國小,1,14,2014-07-30,9999-12-31
W321,25.0496,121.5381,Taipei,中山女高,1,10,2016-03-24,9999-12-31
W322,25.0027,121.5517,Taipei,興隆國小,1,22,2017-12-14,9999-12-31
W323,25.040724,121.614071,Taipei,地球所5樓,5,24,2019-03-28,9999-12-31
W324,25.0641,121.5126,Taipei,大橋國小,1,9,2019-10-18,9999-12-31
W330,25.0065,121.214167,Taoyuan,青埔國小,1,108,2014-07-30,9999-12-31
W331,25.0126,121.137283,Taoyuan,新坡國小,1,75.2,2014-07-30,2022-05-25
W331,25.0126,121.137283,Taoyuan,新坡國小,1,75.2,2022-05-26,9999-12-31
W332,24.973649,121.102035,Taoyuan,新屋國小,1,92.7,2014-07-30,2019-05-15
W332,24.973649,121.102035,Taoyuan,新屋國小,1,92.7,2019-05-16,9999-12-31
W333,25.035383,121.0832,Taoyuan,觀音國小,1,36,2014-07-30,9999-12-31
W334,24.974535,121.026197,Taoyuan,笨港國小,1,20,2014-07-30,9999-12-31
W335,25.086383,121.190683,Taoyuan,內海國小,1,22.1,2014-07-30,9999-12-31
W336,24.918767,121.137217,Taoyuan,水美國小,1,150.8,2014-07-30,2021-08-30
W336,24.918767,121.137217,Taoyuan,水美國小,1,150.8,2021-08-31,9999-12-31
W337,24.922617,121.249983,Taoyuan,忠貞國小,1,196,2014-07-30,2018-03-14
W337,24.922617,121.249983,Taoyuan,忠貞國小,1,196,2018-03-15,9999-12-31
W338,25.101867,121.26665,Taoyuan,海湖國小,1,23.8,2014-07-30,2022-05-29
W338,25.101867,121.26665,Taoyuan,海湖國小,1,23.8,2022-05-30,9999-12-31
W339,24.655217,121.39945,Taoyuan,光華國小,2,880,2014-07-30,2020-09-23
W339,24.655217,121.39945,Taoyuan,光華國小,2,880,2020-09-24,9999-12-31
W33A,24.936917,121.080517,Taoyuan,富岡國小,2,118,2014-07-30,2018-03-15
W33A,24.936917,121.080517,Taoyuan,富岡國小,1,118,2018-03-16,9999-12-31
W33B,24.881783,121.304483,Taoyuan,美華國小,2,189.2,2014-07-30,9999-12-31
W33C,24.847667,121.167667,Taoyuan,三和國小,1,184.9,2014-07-30,9999-12-31
W33D,24.8704,121.2347,Taoyuan,武漢國小,1,227,2014-07-30,9999-12-31
W33E,24.8362,121.2484,Taoyuan,三坑國小,3,169.4,2014-07-30,2018-05-24
W33E,24.8362,121.2484,Taoyuan,三坑國小,1,169.4,2018-05-25,9999-12-31
W33F,24.8001,121.3073,Taoyuan,長興國小,1,351,2014-07-30,9999-12-31
W340,24.7975,121.36485,Taoyuan,羅浮國小,1,317.5,2014-07-30,9999-12-31
W341,24.908267,121.1795,Taoyuan,瑞塘國小,2,208.7,2014-07-30,9999-12-31
W342,24.986783,121.2901,Taoyuan,中山國小,1,132.9,2014-07-30,2017-12-13
W342,24.986783,121.2901,Taoyuan,中山國小,2,132.9,2017-12-14,9999-12-31
W343,25.045083,121.314617,Taoyuan,大坑國小,1,112,2014-07-30,9999-12-31
W344,24.674,121.367317,Taoyuan,三光國小,1,697.7,2014-07-30,9999-12-31
W345,24.712119,121.3604,Taoyuan,高義國小,1,646,2020-09-24,9999-12-31
W346,25.057956,121.359963,Taoyuan,大湖國小,1,252,2021-03-22,9999-12-31
W350,23.8527,120.3207,Changhua,大城國小,1,6.5,2014-10-28,9999-12-31
W351,24.147,120.4763,Changhua,伸仁國小,1,7.7,2014-10-30,2022-06-15
W351,24.147,120.4763,Changhua,伸仁國小,1,7.7,2022-06-16,9999-12-31
W352,24.0888,120.4798,Changhua,頂番國小,1,16.7,2014-10-21,9999-12-31
W353,24.0586,120.4434,Changhua,鹿東國小,1,3.6,2014-10-21,9999-12-31
W354,24.008,120.4191,Changhua,文昌國小,1,10,2014-10-21,9999-12-31
W355,23.9813,120.3901,Changhua,建新國小,1,16,2014-10-14,9999-12-31
W356,23.9376,120.3953,Changhua,新生國小,1,12.6,2014-10-14,9999-12-31
W357,23.8979,120.3706,Changhua,中正國小,2,16,2014-10-29,9999-12-31
W358,23.876,120.4166,Changhua,民靖國小,1,13.3,2014-10-22,9999-12-31
W359,23.8531,120.4919,Changhua,南州國小,1,37.3,2014-10-24,9999-12-31
W35A,23.8927,120.4781,Changhua,埤頭國小,1,23.3,2014-10-22,9999-12-31
W35B,23.9187,120.5044,Changhua,陸豐國小,1,34.6,2014-10-27,9999-12-31
W35C,23.9487,120.4432,Changhua,中興國小,1,7.9,2014-10-22,9999-12-31
W35D,23.968,120.4869,Changhua,溪湖高中,1,22.1,2014-10-27,9999-12-31
W35E,24.0026,120.4929,Changhua,明正國小,1,7.7,2014-10-29,9999-12-31
W35F,24.1042,120.5334,Changhua,新庄國小,1,20,2014-10-21,9999-12-31
W360,24.0717,120.5515,Changhua,彰化高中,1,43,2014-10-15,9999-12-31
W361,24.0476,120.5446,Changhua,白沙國小,1,28,2014-10-15,9999-12-31
W362,24.0172,120.5657,Changhua,三春國小,1,31,2014-10-15,9999-12-31
W363,23.9927,120.585,Changhua,村東國小,1,45.3,2014-10-21,9999-12-31
W364,23.9684,120.6013,Changhua,東山國小,2,41,2014-10-15,9999-12-31
W365,23.9623,120.5635,Changhua,員林高中,1,24.6,2014-10-20,9999-12-31
W366,23.9198,120.6014,Changhua,湳雅國小,1,34.7,2014-10-16,9999-12-31
W367,23.8671,120.6053,Changhua,東和國小,1,50.4,2014-10-24,9999-12-31
W368,23.811,120.617,Changhua,二水國小,1,85,2014-10-16,9999-12-31
W369,23.8263,120.545,Changhua,成功國小,1,42.4,2014-10-20,2022-06-15
W369,23.8263,120.545,Changhua,成功國小,1,42.4,2022-06-16,9999-12-31
W36A,23.8868,120.5606,Changhua,南鎮國小,1,37,2014-10-20,9999-12-31
W36B,24.014889,120.643065,Changhua,茄荖國小,1,56,2022-09-02,9999-12-31
W370,23.5771,120.3047,Yunlin,北港高中,1,9.3,2014-12-09,9999-12-31
W371,23.7114,120.2661,Yunlin,同安國小,1,16.1,2014-12-05,9999-12-31
W372,23.5417,120.1897,Yunlin,文光國小,1,1.1,2014-12-05,9999-12-31
W373,23.7097,120.1912,Yunlin,台西國中,1,7.7,2014-12-02,9999-12-31
W374,23.7398,120.2222,Yunlin,新興國小,1,3,2014-12-02,9999-12-31
W375,23.6007,120.1793,Yunlin,頂湖國小,1,3,2014-12-02,9999-12-31
W376,23.6429,120.1777,Yunlin,飛沙國小,1,5,2014-12-02,9999-12-31
W377,23.7672,120.4583,Yunlin,廣興國小,1,32.9,2014-11-27,9999-12-31
W378,23.8167,120.4139,Yunlin,義賢國小,1,17.9,2014-11-27,9999-12-31
W379,23.7862,120.3555,Yunlin,陽明國小,1,15.6,2014-11-27,2017-11-21
W379,23.7862,120.3555,Yunlin,陽明國小,1,15.6,2017-11-22,9999-12-31
W37A,23.7975,120.2735,Yunlin,橋頭國小,1,10,2014-11-27,9999-12-31
W37B,23.6567,120.3497,Yunlin,秀潭國小,1,17,2014-11-26,9999-12-31
W37C,23.6207,120.315,Yunlin,忠孝國小,1,11,2014-11-26,9999-12-31
W37D,23.6522,120.2718,Yunlin,東光國小,1,11.5,2014-11-26,9999-12-31
W37E,23.7198,120.3383,Yunlin,潮厝國小,1,12.5,2014-11-26,9999-12-31
W37F,23.7153,120.5291,Yunlin,正心中學,1,53.3,2014-11-25,9999-12-31
W380,23.6773,120.5139,Yunlin,久安國小,1,47.4,2014-11-25,9999-12-31
W381,23.7372,120.5145,Yunlin,大美國小,1,44.5,2014-11-25,9999-12-31
W382,23.6457,120.5658,Yunlin,古坑國小,1,112.4,2014-11-21,9999-12-31
W383,23.6867,120.5863,Yunlin,新光國小,1,84,2014-11-21,9999-12-31
W384,23.7599,120.6176,Yunlin,林內國小,1,90,2014-11-21,9999-12-31
W385,23.768,120.5634,Yunlin,六合國小,1,52.4,2014-11-21,9999-12-31
W386,23.7413,120.4014,Yunlin,光復國小,1,25.2,2014-11-24,9999-12-31
W387,23.7102,120.4416,Yunlin,虎尾高中,1,38.7,2014-11-24,9999-12-31
W388,23.6472,120.4592,Yunlin,嘉興國小,2,39.1,2014-11-21,9999-12-31
W389,23.63466,120.40162,Yunlin,舊庄國小,1,20,2014-11-24,9999-12-31
W38A,23.6041,120.2409,Yunlin,宏仁國小,1,8,2014-12-10,9999-12-31
W38B,23.6042,120.6319,Yunlin,樟湖國中小,1,818,2016-12-07,9999-12-31
W38C,23.5613,120.6063,Chiayi,太平國小,2,964,2016-12-06,9999-12-31
W38D,23.4118,120.3077,Chiayi,鹿草國小,1,18,2017-07-19,2018-06-25
W38D,23.4118,120.3077,Chiayi,鹿草國小,1,18,2018-06-26,9999-12-31
W38E,23.4198,120.183,Chiayi,過溝國小,1,3,2018-06-26,9999-12-31
W390,22.673,121.4705,Taitung,綠島國中,1,13,2015-03-17,9999-12-31
W391,22.6745,121.4931,Taitung,公館國小,1,12,2015-03-17,2020-06-17
W391,22.6745,121.4931,Taitung,公館國小,1,12,2020-06-18,2020-07-29
W391,22.6745,121.4931,Taitung,公館國小,1,12,2020-07-30,9999-12-31
W392,22.08,121.5279,Taitung,朗島國小,1,14,2015-09-08,9999-12-31
W393,22.0194,121.5627,Taitung,蘭嶼國小,1,24,2015-09-08,9999-12-31
W394,23.3542,121.4655,Taitung,三間國小,1,49,2016-05-25,9999-12-31
W395,23.3154,121.4524,Taitung,長濱國小,1,59,2016-05-25,9999-12-31
W396,23.2862,121.4301,Taitung,竹湖國小,1,10,2016-05-25,9999-12-31
W397,23.2449,121.4137,Taitung,寧埔國小,1,33,2016-05-25,9999-12-31
W398,23.157,121.3999,Taitung,忠孝國小,1,19,2016-05-26,9999-12-31
W399,23.1022,121.3825,Taitung,成功國小,1,21,2016-05-26,9999-12-31
W39A,23.0397,121.2929,Taitung,北源國小,1,132,2016-05-26,9999-12-31
W39B,23.0957,121.2186,Taitung,萬安國小,1,283,2016-05-27,9999-12-31
W39C,23.0437,121.1959,Taitung,振興分校,1,298,2016-05-27,9999-12-31
W39D,23.0061,121.173,Taitung,電光國小,1,204,2016-05-27,9999-12-31
W39E,22.9578,121.1556,Taitung,瑞源國小,1,186,2016-05-27,9999-12-31
W39F,22.7169,121.0477,Taitung,知本國中,1,71,2016-05-30,9999-12-31
W400,22.34,120.8892,Taitung,尚武國小,1,12,2016-05-31,2019-09-25
W400,22.34,120.8892,Taitung,尚武國小,1,12,2019-09-26,9999-12-31
W401,22.7573,121.145,Taitung,台東高商,1,18,2017-09-06,9999-12-31
W402,24.3944,120.9208,Miaoli,泰興國小,1,484,2017-11-09,9999-12-31
W403,24.6019,120.7782,Miaoli,龍坑國小,1,20,2017-12-06,9999-12-31
W404,24.4909,120.6833,Miaoli,通霄國小,1,19,2017-12-06,9999-12-31
W405,24.559,120.71,Miaoli,啟明國小,1,28,2018-04-13,9999-12-31
W406,24.4482,120.6547,Miaoli,苑裡國小,1,19,2018-04-12,9999-12-31
W407,24.4176,120.6852,Miaoli,山腳國小,1,62,2018-04-12,9999-12-31
W408,24.5276,120.7517,Miaoli,瑞湖分校,1,79,2018-04-12,9999-12-31
W409,24.624,120.894,Miaoli,錦水國小,1,31,2018-04-13,9999-12-31
W40A,24.6178,120.9149,Miaoli,大坪分校,1,37,2018-04-13,9999-12-31
W40B,24.5435,120.971,Miaoli,蓬萊國小,1,459,2018-05-31,9999-12-31
W40C,24.3478,120.8266,Miaoli,新開國小,1,324,2018-06-01,9999-12-31
W40D,24.4658,120.9401,Miaoli,汶水國小,1,472,2018-05-31,2022-11-30
W40D,24.4658,120.9401,Miaoli,汶水國小,1,472,2022-12-01,9999-12-31
W40E,24.4897,120.9327,Miaoli,八卦分班,1,580,2018-05-31,9999-12-31
W40F,24.44,120.9255,Miaoli,清安國小,1,425,2018-06-01,9999-12-31
W410,24.2261,120.7046,Taichung,弘文中學,1,184,2017-12-05,9999-12-31
W411,24.1359,120.6776,Taichung,台中女中,1,78,2017-12-06,2023-01-11
W411,24.1359,120.6776,Taichung,台中女中,1,78,2023-01-12,9999-12-31
W412,24.1963,120.748,Taichung,大坑國小,2,217,2018-10-04,9999-12-31
W413,24.2767,120.6349,Taichung,東山國小,1,195,2018-10-05,9999-12-31
W414,24.2929,120.9351,Taichung,烏石分校,2,631,2019-08-21,9999-12-31
W415,24.2765,120.7738,Taichung,石岡國小,1,285,2019-08-22,9999-12-31
W416,24.06209,120.642894,Taichung,喀哩國小,1,38,2020-09-11,9999-12-31
W417,24.0838,120.752443,Taichung,黃竹國小,1,165,2022-09-02,9999-12-31
W418,24.149332,120.615334,Taichung,文山國小,1,64,2022-09-02,9999-12-31
W419,24.153826,120.546625,Taichung,大肚國小,1,17,2023-03-17,9999-12-31
W420,22.073,120.814,Pingtung,牡林分校,1,189,2018-07-11,9999-12-31
W421,22.2611,120.650993,Pingtung,枋山分校,1,6,2020-09-03,9999-12-31
W422,22.738282,120.55396,Pingtung,新圍國小,2,49,2020-09-02,9999-12-31
W423,22.470952,120.454348,Pingtung,東港國小,1,0,2020-09-04,9999-12-31
W424,22.432549,120.51839,Pingtung,林邊國小,1,1,2020-09-04,9999-12-31
W425,22.401681,120.576875,Pingtung,東海國小,2,13,2020-09-04,9999-12-31
W426,22.804009,120.57758,Pingtung,田子國小,1,63,2020-09-01,9999-12-31
W427,22.807755,120.492351,Pingtung,土庫國小,1,36,2020-09-01,9999-12-31
W430,23.2315,120.2616,Tainan,下營國小,1,6,2018-10-31,9999-12-31
W431,23.2455,120.16,Tainan,中洲國小,1,5,2018-11-01,9999-12-31
W432,23.2861,120.138,Tainan,蚵寮國小,1,5,2018-10-31,9999-12-31
W433,23.2185,120.1068,Tainan,長平國小,1,6,2018-11-01,9999-12-31
W434,23.1885,120.0885,Tainan,鯤鯓國小,1,4,2018-11-01,9999-12-31
W435,23.16,120.1353,Tainan,篤加國小,1,1,2018-11-02,9999-12-31
W436,23.1018,120.117,Tainan,三股國小,1,4,2018-11-02,9999-12-31
W437,23.1215,120.1807,Tainan,成功國小,1,6,2018-11-02,9999-12-31
W438,22.9143,120.2716,Tainan,大潭國小,1,23,2018-11-21,9999-12-31
W439,22.9399,120.3334,Tainan,深坑國小,1,37,2018-11-22,9999-12-31
W43A,23.0765,120.1169,Tainan,青草國小,1,3,2020-03-23,2020-04-27
W43A,23.0765,120.1169,Tainan,青草國小,1,3,2020-04-28,9999-12-31
W43B,23.241,120.3177,Tainan,林鳳國小,1,16,2020-03-24,2020-04-27
W43B,23.241,120.3177,Tainan,林鳳國小,1,16,2020-04-28,9999-12-31
W43C,23.2659,120.4467,Tainan,東原國小,1,88,2020-03-24,2020-04-28
W43C,23.2659,120.4467,Tainan,東原國小,1,88,2020-04-29,9999-12-31
W43D,23.226,120.3484,Tainan,六甲國小,1,25,2020-04-28,9999-12-31
W43E,23.2222,120.4004,Tainan,湖東分校,1,130,2020-04-28,9999-12-31
W43F,23.2664,120.3879,Tainan,新山國小,1,40,2020-04-28,9999-12-31
W440,22.6564,120.4233,Kaohsiung,九曲國小,1,30,2019-04-09,9999-12-31
W441,22.5614,120.336,Kaohsiung,小港國小,2,3,2019-04-09,9999-12-31
W442,22.5076,120.3935,Kaohsiung,林園國小,1,7,2019-09-25,9999-12-31
W443,22.7599,120.293,Kaohsiung,五林國小,1,4,2020-04-27,9999-12-31
W444,22.7837,120.2473,Kaohsiung,彌陀國小,3,3,2020-04-27,9999-12-31
W445,22.727866,120.278262,Kaohsiung,援中國小,2,1,2021-01-18,9999-12-31
W446,22.851119,120.540862,Kaohsiung,吉東國小,1,58,2021-01-19,9999-12-31
W447,23.022574,120.561548,Kaohsiung,集來國小,1,175,2021-01-19,9999-12-31
W448,22.888264,120.480625,Kaohsiung,旗山國小,1,50,2021-01-19,9999-12-31
W449,23.248737,120.702867,Kaohsiung,民權國小,2,826,2021-01-20,9999-12-31
W44A,23.276186,120.720543,Kaohsiung,民生國小,2,704,2021-01-20,9999-12-31
W44B,22.847315,120.465447,Kaohsiung,溪洲國小,1,41,2021-01-21,9999-12-31
W44C,22.623642,120.271294,Kaohsiung,鼓山國小,1,-1,2021-01-21,9999-12-31
W450,22.8949,121.2479,Taitung,興隆國小,1,31,2019-05-09,9999-12-31
W451,22.9711,121.3049,Taitung,東河國小,1,37,2019-05-08,9999-12-31
W460,23.3794,120.2467,Chiayi,光榮國小,1,10,2019-07-25,9999-12-31
W461,23.336,120.2456,Chiayi,義竹國小,1,12,2019-07-25,9999-12-31
W462,23.3067,120.2084,Chiayi,過路國小,2,5,2019-07-25,9999-12-31
W463,23.5181,120.5911,Chiayi,龍山國小,1,227,2019-07-23,9999-12-31
W464,23.5557,120.7244,Chiayi,仁和國小,2,662,2019-11-06,9999-12-31
W465,23.502,120.6978,Chiayi,中和國小,1,1359,2019-11-07,9999-12-31
W466,23.3377,120.6832,Chiayi,新美國小,1,569,2019-11-08,9999-12-31
W467,23.5337,120.7215,Chiayi,太和國小,2,881,2019-11-06,9999-12-31
W468,23.5398,120.6655,Chiayi,瑞里國小,1,1041,2019-11-06,9999-12-31
W469,23.4923,120.7539,Chiayi,十字國小,2,1541,2019-11-07,9999-12-31
W46A,23.4054,120.7207,Chiayi,里佳分校,1,1083,2019-11-07,9999-12-31
W46B,23.4296,120.6602,Chiayi,隙頂國小,1,1242,2019-11-08,9999-12-31
W46C,23.561785,120.349194,Chiayi,古民國小,2,12,2020-09-10,9999-12-31
W46D,23.491675,120.186936,Chiayi,下楫國小,2,1,2020-09-10,9999-12-31
W46E,23.439445,120.538868,Chiayi,社口國小,1,139,2023-03-17,9999-12-31
W470,24.7476,121.6914,Ilan,大湖國小,1,24,2019-10-18,9999-12-31
W471,24.7795,121.6997,Ilan,湖山國小,1,91,2019-10-18,9999-12-31
W472,24.6541,121.7628,Ilan,順安國小,1,14,2019-10-17,9999-12-31
W473,24.6267,121.7435,Ilan,中山分校,1,44,2019-10-17,9999-12-31
W474,24.6927,121.7286,Ilan,大洲國小,1,21,2019-10-16,9999-12-31
W475,23.973472,121.56251,Hualien,吉安國小,1,44,2020-11-03,9999-12-31
W476,23.948446,121.547899,Hualien,南華國小,1,75,2020-11-03,9999-12-31
W47A,24.62488,121.148158,Hsinchu,竹林分校,1,939,2020-09-22,9999-12-31
W47B,24.655658,121.326428,Hsinchu,石磊國小,2,871,2020-09-23,9999-12-31
W47C,24.745289,121.039347,Hsinchu,山湖分校,1,172,2021-03-24,9999-12-31
W47D,24.9011,120.987684,Hsinchu,新豐國小,1,20,2021-03-25,9999-12-31
W47E,24.866934,121.136116,Hsinchu,清水國小,1,167,2021-03-25,9999-12-31
W47F,24.789462,121.183263,Hsinchu,東安國小,1,155,2021-03-25,9999-12-31
W480,23.992086,120.762598,Nantou,平林國小,2,193,2023-06-05,9999-12-31
W481,23.945037,120.790753,Nantou,清水國小,1,271,2023-06-05,9999-12-31
W482,24.148637,121.188577,Nantou,力行國小,2,1497,2023-06-05,9999-12-31
W483,24.179501,121.200094,Nantou,翠巒分校,2,1598,2023-06-05,9999-12-31
W484,23.980906,120.876617,Nantou,北山國小,1,345,2023-06-05,9999-12-31
W485,24.06645,120.876629,Nantou,長流國小,1,337,2023-06-05,9999-12-31
W48A,24.157477,120.665515,Taichung,台中科博館,-1,89,2022-08-31,9999-12-31
W48B,24.041928,120.700506,Taichung,921教育園區,1,82,2022-09-01,9999-12-31
W48C,23.794558,120.711857,Nantou,車籠埔保存園區,1,147,2022-09-01,9999-12-31
W48D,23.734977,120.78359,Nantou,鳳凰谷鳥園辦公室,2,772,2022-09-01,9999-12-31
W48E,24.557479,120.757642,Miaoli,西湖國小,1,33,2022-08-31,9999-12-31
W48F,24.034978,120.724939,Taichung,峰谷國小,1,139,2023-06-05,9999-12-31
